,City,Cloudiness,Country,Date,Humidity,Lat,Lng,Max Temp,Wind Speed
0,atuona,33,PF,1624091360,77,-9.8,-139.0333,79.41,22.41
1,harer,92,ET,1624091360,53,9.3094,42.1258,70.79,11.05
2,busselton,100,AU,1624091362,73,-33.65,115.3333,60.04,15.9
3,mys shmidta,86,RU,1624091362,33,62.0589,48.6201,80.2,14.58
4,port elizabeth,12,CD,1624091363,54,-7.0349,29.7638,77.68,12.8
5,zavodskoy,40,RU,1624091364,72,43.4597,132.2922,65.79,15.66
6,vaini,20,TO,1624091364,94,-21.2,-175.2,73.56,5.75
7,tasiilaq,2,GL,1624091365,69,65.6145,-37.6368,35.76,3.69
8,san javier,74,ML,1624091366,47,13.3034,-4.8956,87.03,14.03
9,sambava,30,MG,1624091367,77,-14.2667,50.1667,76.5,12.03
10,ribeira grande,75,ES,1624091368,96,42.7461,-8.4439,61.52,4.61
11,hofn,100,IS,1624091368,70,64.2539,-15.2082,44.89,4.36
12,havre,90,FR,1624091369,88,49.5833,0.3333,60.58,2.3
13,labuhan,59,ID,1624091370,66,-6.8844,112.2051,84.9,6.71
14,paraiso,96,CR,1624091371,96,9.8383,-83.8656,66.11,1.9
15,cape town,72,CL,1624091372,85,-36.413,-71.9028,40.42,1.63
16,castro,100,BR,1624091372,98,-24.7911,-50.0119,51.84,6.67
17,port alfred,12,CD,1624091373,54,-7.0349,29.7638,77.68,12.8
18,san jose,74,ML,1624091356,47,13.3034,-4.8956,87.03,14.03
19,hobart,75,AU,1624091271,89,-42.8794,147.3294,51.03,8.05
20,bethel,90,US,1624091375,80,41.3712,-73.414,70.03,9.22
21,hilo,1,US,1624091376,83,19.7297,-155.09,75.27,5.75
22,new norfolk,52,LR,1624091376,92,6.6518,-10.5932,74.43,0.63
23,abu samrah,100,IN,1624091378,78,24.6,72.7,69.19,5.28
24,namatanai,32,PG,1624091379,78,-3.6667,152.4333,79.74,2.35
25,east london,100,IS,1624091379,87,65.0,-15.0,35.35,5.55
26,rundu,0,NA,1624091380,30,-17.9333,19.7667,66.09,8.16
27,punta arenas,100,PH,1624091381,70,8.9897,125.34,84.96,7.67
28,qaanaaq,50,GL,1624091382,60,77.484,-69.3632,33.46,4.94
29,chapais,99,CA,1624091117,98,49.7834,-74.8492,55.18,3.78
30,champerico,100,GT,1624091383,86,14.3,-91.9167,82.35,3.74
31,clyde river,99,US,1624091383,91,41.3042,-82.9752,72.39,7.72
32,fare,2,PF,1624091384,76,-16.7,-151.0167,80.73,15.9
33,bredasdorp,4,ZA,1624091385,77,-34.5322,20.0403,56.52,5.75
34,maragogi,97,BR,1624091385,92,-9.0122,-35.2225,73.51,9.19
35,ushuaia,75,AR,1624091386,93,-54.8,-68.3,38.86,5.75
36,marzuq,6,YE,1624091387,13,14.4,46.4667,96.13,8.57
37,jamestown,40,US,1624091362,93,42.097,-79.2353,71.19,3.0
38,albany,79,US,1624091116,75,42.6001,-73.9662,69.53,2.84
39,buraydah,0,SA,1624091389,6,26.326,43.975,99.05,7.18
40,rikitea,100,PF,1624091390,69,-23.1203,-134.9692,75.15,19.89
41,marawi,100,PH,1624091390,89,7.9986,124.2928,76.64,1.07
42,balabac,100,PH,1624091391,71,7.9868,117.0645,85.5,7.96
43,nanortalik,100,GL,1624091392,73,60.1432,-45.2371,40.15,10.87
44,smithers,1,CA,1624091190,93,54.7804,-127.1743,44.92,2.3
45,mataura,10,NZ,1624091393,95,-46.1927,168.8643,40.48,3.8
46,margate,100,GB,1624091394,90,51.3813,1.3862,58.3,1.99
47,yellowknife,20,CA,1624091280,61,62.456,-114.3525,46.92,16.11
48,haines junction,20,US,1624091395,87,59.2286,-135.4441,55.08,5.75
49,corinto,9,GR,1624091396,66,37.9407,22.9573,87.91,6.13
50,souillac,40,MU,1624091396,65,-20.5167,57.5167,79.36,9.22
51,gold coast,1,US,1624091397,87,35.7932,-81.762,73.13,0.0
52,touros,9,BR,1624091246,92,-5.1989,-35.4608,72.5,11.63
53,iqaluit,75,CA,1624091398,93,63.7506,-68.5145,31.73,5.99
54,ambunti,61,PG,1624091399,82,-4.2365,142.8448,80.01,1.16
55,hermanus,10,ZA,1624091401,48,-34.4187,19.2345,68.9,6.62
56,gawler,97,AU,1624091401,89,-34.6,138.7333,57.22,2.73
57,tiksi,99,RU,1624091402,48,71.6872,128.8694,59.65,4.88
58,puri,100,IN,1624091403,76,19.8,85.85,86.52,14.32
59,meiganga,84,CM,1624091404,71,6.5167,14.3,76.73,3.71
60,sitka,75,US,1624091405,71,57.0531,-135.33,53.49,3.44
61,karlskoga,25,SE,1624091349,59,59.3267,14.5239,70.92,11.61
62,tefe,27,BR,1624091406,99,-3.3542,-64.7114,70.66,1.34
63,tateyama,100,JP,1624091407,81,34.9833,139.8667,73.15,18.5
64,mahebourg,40,MU,1624091408,65,-20.4081,57.7,79.25,9.22
65,nuuk,90,GL,1624091408,87,64.1835,-51.7216,39.81,3.44
66,bagua grande,96,PE,1624091409,87,-5.6374,-78.531,69.62,1.07
67,fortuna,90,US,1624091290,69,40.5982,-124.1573,56.43,1.01
68,itamaraca,53,BR,1624091410,93,-7.7478,-34.8256,72.28,9.64
69,vila velha,40,PT,1624091411,87,42.0304,-8.1588,54.7,4.25
70,vilyuysk,100,RU,1624091412,37,63.7553,121.6247,81.14,4.88
71,kelo,98,TD,1624091413,44,9.3086,15.8066,89.6,8.14
72,carnarvon,1,AU,1624091414,40,-24.8667,113.6333,68.07,12.66
73,comodoro rivadavia,57,BR,1624091414,77,-13.6631,-59.7858,62.22,2.91
74,waipawa,100,NZ,1624091415,95,-41.4122,175.5153,49.46,14.79
75,longyearbyen,75,SJ,1624091416,80,78.2186,15.6401,35.44,25.32
76,nyurba,80,RU,1624091417,36,63.2842,118.3319,80.67,2.44
77,balikpapan,20,ID,1624091418,84,-1.2675,116.8289,83.39,3.44
78,dikson,34,RU,1624091418,92,73.5069,80.5464,31.44,7.94
79,laguna,1,US,1624091419,36,38.421,-121.4238,85.84,6.91
80,kapaa,40,US,1624091420,83,22.0752,-159.319,75.52,11.5
81,faanui,19,PF,1624091420,77,-16.4833,-151.75,80.24,15.21
82,upernavik,26,GL,1624091421,61,72.7868,-56.1549,36.82,4.23
83,bluff,5,NZ,1624091422,85,-46.6,168.3333,40.8,12.77
84,barrow,20,US,1624091423,71,71.2906,-156.7887,48.22,6.91
85,saldanha,1,ZA,1624091423,39,-33.0117,17.9442,62.65,8.57
86,kemijarvi,10,FI,1624091424,39,66.7131,27.4306,62.31,7.94
87,san patricio,74,ML,1624091366,47,13.3034,-4.8956,87.03,14.03
88,coahuayana,87,MX,1624091426,94,18.7333,-103.6833,75.45,7.54
89,dogondoutchi,100,NE,1624091427,39,13.6393,4.0287,92.62,9.57
90,sulangan,99,PH,1624091428,67,11.1373,123.7228,85.6,3.24
91,mangai,100,CD,1624091428,23,-4.05,19.5333,89.91,2.77
92,hervey bay,57,US,1624091429,78,33.4982,-93.7771,73.85,4.38
93,talnakh,0,RU,1624091430,79,69.4865,88.3972,44.91,7.47
94,praia,100,CV,1624091431,78,14.9215,-23.5087,72.14,13.8
95,lazo,40,RU,1624091409,99,43.3817,133.9014,52.95,3.42
96,arraial do cabo,100,BR,1624091432,88,-22.8362,-46.646,56.61,4.94
97,shimoda,61,JP,1624091433,90,34.6667,138.95,71.01,9.35
98,provideniya,100,RU,1624091434,62,64.3833,-173.3,53.02,3.47
99,coquimbo,99,CL,1624091434,87,-29.9533,-71.3436,51.53,2.3
100,amasya,0,TR,1624091435,47,40.6667,35.8333,78.48,3.42
101,kamloops,0,CA,1624091285,55,50.6665,-120.3192,63.75,3.0
102,cherskiy,75,RU,1624091437,56,68.75,161.3,49.59,6.71
103,zeliezovce,20,SK,1624091438,56,48.0508,18.6542,85.66,0.94
104,avarua,6,CK,1624091438,83,-21.2078,-159.775,77.05,11.5
105,lagoa,75,PT,1624091439,87,39.05,-27.9833,66.0,14.47
106,tura,10,IN,1624091440,94,25.5198,90.2201,73.92,4.76
107,lompoc,100,US,1624091277,93,34.6391,-120.4579,63.57,0.0
108,kruisfontein,90,ZA,1624091441,36,-34.0033,24.7314,60.89,10.16
109,okmulgee,4,US,1624091442,100,35.6234,-95.9605,78.3,0.0
110,lancut,1,PL,1624091443,57,50.0687,22.2291,82.98,14.97
111,portland,0,US,1624090692,74,45.5234,-122.6762,58.62,1.01
112,norman wells,1,US,1624091155,84,35.2226,-97.4395,79.97,10.36
113,thompson,1,CA,1624091409,93,55.7435,-97.8558,41.16,0.0
114,semnan,20,IR,1624091445,10,35.5729,53.3971,94.3,10.25
115,skagen,0,DK,1624091446,95,57.7209,10.5839,60.94,8.52
116,minsk,96,BY,1624091447,60,53.9,27.5667,78.55,10.29
117,alofi,0,NU,1624091448,94,-19.0595,-169.9187,73.29,8.05
118,san ramon,23,ML,1624091448,42,13.3034,-4.8956,89.92,14.43
119,north bend,80,FR,1624091449,77,50.3333,3.6667,67.44,6.58
120,mangan,100,IN,1624091450,98,27.5167,88.5333,77.41,3.15
121,saint-francois,100,FR,1624091452,64,46.4154,3.9054,78.48,8.05
122,raga,0,SS,1624091452,55,8.4596,25.678,83.16,5.91
123,malazgirt,75,TR,1624091453,17,39.1427,42.5401,90.32,5.66
124,port augusta,0,CD,1624091363,54,-7.0349,29.7638,77.68,12.8
125,ilulissat,12,GL,1624091454,65,69.2167,-51.1,41.02,4.61
126,adrar,3,MR,1624091455,24,20.5022,-10.0711,82.74,18.41
127,pandan,1,PH,1624091456,67,14.0453,124.1694,88.18,6.24
128,husavik,98,IS,1624091456,95,66.0449,-17.3389,40.91,4.12
129,hithadhoo,100,MV,1624091457,71,-0.6,73.0833,83.68,10.58
130,ekhabi,100,RU,1624091458,56,53.5102,142.9671,55.11,4.41
131,basco,55,PH,1624091458,85,20.4487,121.9702,83.53,28.5
132,carsamba,57,TR,1624091459,73,41.1989,36.7219,74.79,6.91
133,puerto ayora,0,ES,1624091460,70,36.5939,-6.233,66.61,8.05
134,vila franca do campo,75,PT,1624091460,87,42.0304,-8.1588,54.7,4.25
135,tiznit,40,MA,1624091461,64,29.5833,-9.5,62.82,6.04
136,coihaique,52,CL,1624091462,80,-45.5752,-72.0662,28.35,4.61
137,butaritari,0,KI,1624091464,71,3.0707,172.7902,83.01,5.23
138,mar del plata,35,ES,1624091464,92,43.4002,-4.0094,68.25,3.0
139,broome,20,US,1624091465,87,42.2506,-75.833,68.58,6.91
140,kodiak,90,US,1624091466,87,57.79,-152.4072,47.71,9.22
141,matiguas,90,NI,1624091466,97,12.8373,-85.4622,69.94,3.36
142,kidal,44,ML,1624091169,31,18.4411,1.4078,92.61,13.44
143,kaitangata,3,NZ,1624091468,91,-46.2817,169.8464,46.63,4.74
144,katsuura,98,JP,1624091469,81,35.1333,140.3,72.19,17.38
145,victoria,100,HK,1624091271,85,22.2855,114.1577,93.25,8.99
146,caxito,97,AO,1624091470,57,-8.5785,13.6643,79.45,5.68
147,bera,2,BD,1624091471,81,24.0833,89.6167,80.69,7.56
148,tarakan,100,ID,1624091472,62,3.3,117.6333,89.1,5.75
149,beloha,40,MG,1624091473,50,-25.1667,45.05,74.8,16.33
150,tual,47,ID,1624091473,77,-5.6667,132.75,81.21,20.29
151,mackay,100,AU,1624091474,67,-21.15,149.2,63.05,4.61
152,rosita,81,NI,1624091475,98,13.9268,-84.4032,72.55,2.66
153,sao filipe,100,IN,1624091476,46,20.5113,76.2129,86.13,14.29
154,khuzhir,100,RU,1624091476,71,53.1939,107.3397,51.42,3.94
155,ust-nera,56,RU,1624091477,25,64.5667,143.2,78.35,5.37
156,leningradskiy,49,RU,1624091478,94,69.3833,178.4167,37.24,2.91
157,airai,86,TL,1624091478,84,-8.9266,125.4092,63.07,3.36
158,kysyl-syr,93,RU,1624091479,35,63.8986,122.7617,82.62,2.35
159,lar gerd,96,IN,1624091480,91,26.2039,83.9717,76.93,14.0
160,sainte-maxime,100,FR,1624091480,72,43.3,6.6333,83.71,9.62
161,quelimane,69,MZ,1624091481,69,-17.8786,36.8883,76.95,4.61
162,tougan,40,BF,1624091482,46,13.0667,-3.0667,89.35,14.41
163,maunatlala,66,BW,1624091483,59,-22.597,27.6301,64.13,16.37
164,cidreira,71,BR,1624091484,86,-30.1811,-50.2056,58.59,12.06
165,cavalcante,100,BR,1624091484,57,-13.7975,-47.4583,64.13,4.7
166,segezha,78,RU,1624091485,45,63.7415,34.3222,67.5,10.33
167,okhotsk,35,RU,1624091486,53,59.3833,143.3,61.38,14.41
168,nome,27,US,1624091487,52,64.5011,-165.4064,64.47,8.05
169,axim,1,GH,1624091488,73,4.8699,-2.2405,81.57,8.59
170,jacareacanga,81,BR,1624091488,99,-6.2222,-57.7528,70.05,1.14
171,tilichiki,85,RU,1624091489,86,60.4667,166.1,43.41,4.38
172,saint-philippe,100,RE,1624091490,57,-21.3585,55.7679,78.35,9.33
173,lasa,30,IT,1624091490,64,46.6166,10.7002,74.35,1.14
174,vao,100,NC,1624091491,78,-22.6667,167.4833,73.29,17.67
175,gazojak,70,TM,1624091492,10,41.1875,61.4036,100.18,20.29
176,udalguri,2,IN,1624091493,70,26.7667,92.1333,88.39,5.23
177,kaeo,84,NZ,1624091493,93,-35.1,173.7833,61.32,8.5
178,cabo san lucas,100,BR,1624091494,95,-8.2833,-35.0333,69.73,9.31
179,severo-kurilsk,74,RU,1624091495,93,50.6789,156.125,42.96,4.38
180,lavrentiya,100,RU,1624091495,72,65.5833,-171.0,48.24,0.38
181,verkhoyansk,72,RU,1624091496,22,67.5447,133.385,83.61,1.5
182,guerrero negro,100,MX,1624091497,99,17.6667,-100.0,65.21,2.13
183,westport,100,US,1624091221,88,41.1415,-73.3579,69.85,1.01
184,evensk,90,RU,1624091498,86,61.95,159.2333,49.51,7.27
185,kharhial,99,IN,1624091499,68,20.2833,82.7667,83.26,9.35
186,nikolskoye,100,RU,1624091499,36,59.7035,30.7861,82.8,8.48
187,constitucion,3,CL,1624091500,82,-35.3333,-72.4167,49.41,4.59
188,isangel,47,VU,1624091501,83,-19.55,169.2667,75.83,4.59
189,khatanga,91,RU,1624091502,59,71.9667,102.5,56.57,8.63
190,chokurdakh,99,RU,1624091502,35,70.6333,147.9167,72.52,8.99
191,luderitz,100,NA,1624091503,25,-26.6481,15.1594,80.1,14.65
192,palmer,4,US,1624091242,73,42.1584,-72.3287,69.17,3.0
193,kem,80,RU,1624091506,37,64.9555,34.5793,67.33,13.85
194,pisco,15,PE,1624091506,82,-13.7,-76.2167,64.45,2.3
195,faya,90,SA,1624091507,17,18.3851,42.4509,86.52,3.51
196,nelson bay,18,NZ,1624091409,91,-41.2833,173.2833,49.69,1.01
197,vidim,100,RU,1624091508,45,56.4088,103.1106,72.27,8.39
198,luwuk,85,ID,1624091509,82,-0.9516,122.7875,81.12,5.93
199,ambanja,94,MG,1624091509,51,-13.6833,48.45,82.33,5.59
200,calabozo,9,VE,1624091510,95,8.9242,-67.4293,71.35,4.07
201,alta floresta,31,NO,1624091511,65,69.9689,23.2717,54.64,5.01
202,malumfashi,75,NG,1624091512,47,11.7853,7.6218,86.76,11.61
203,prescott,76,US,1624091410,27,34.54,-112.4685,79.9,1.01
204,ponta do sol,1,PT,1624091513,83,38.7333,-28.2667,63.28,13.27
205,semey,22,KZ,1624091513,67,50.4111,80.2275,62.82,26.84
206,bukachacha,75,RU,1624091514,72,52.9833,116.9167,59.92,10.67
207,takaka,64,NZ,1624091515,88,-40.85,172.8,52.56,10.11
208,santa rosa,100,PH,1624091516,75,17.486,120.4348,84.06,8.55
209,kahului,70,US,1624091447,81,20.8947,-156.47,75.85,14.97
210,mantua,1,IT,1624091519,56,45.1667,10.7833,84.7,7.11
211,awjilah,100,LY,1624091520,32,29.1081,21.2869,84.96,13.38
212,atambua,0,ID,1624091521,71,-9.1061,124.8925,77.49,2.24
213,vardo,96,NO,1624091521,76,70.3705,31.1107,46.38,8.05
214,belgrade,75,RS,1624091356,58,44.804,20.4651,84.38,10.36
215,aurangabad,0,IN,1624091338,42,19.8833,75.3333,88.68,16.04
216,ribeira brava,82,ES,1624091368,96,42.7461,-8.4439,61.52,4.61
217,tautira,75,PF,1624091525,83,-17.7333,-149.15,77.02,14.65
218,andenes,29,NO,1624091525,71,69.3143,16.1194,53.08,19.57
219,balykshi,90,KZ,1624091526,21,47.0667,51.8667,82.4,11.18
220,half moon bay,0,LR,1624091527,81,6.3807,-10.6953,75.09,2.84
221,baruun-urt,43,MN,1624091528,36,46.6806,113.2792,67.33,17.0
222,marovoay,63,MG,1624091529,39,-16.1,46.6333,87.94,10.11
223,chuy,18,UY,1624091530,84,-33.6971,-53.4616,52.39,4.09
224,comrat,98,MD,1624091530,79,46.3003,28.6572,67.53,13.27
225,pevek,100,RU,1624091531,94,69.7008,170.3133,34.07,0.78
226,karasjok,68,NO,1624091532,60,69.4719,25.5112,53.71,23.38
227,eugene,78,US,1624091384,82,44.0521,-123.0867,55.8,1.99
228,priyutnoye,1,RU,1624091533,28,46.1011,43.5072,90.46,25.95
229,aklavik,0,CA,1624091534,45,68.2191,-135.0107,66.92,9.1
230,northam,64,GB,1624091535,79,51.0333,-4.2167,63.68,4.63
231,hasaki,96,JP,1624091537,80,35.7333,140.8333,72.0,17.76
232,hundested,100,DK,1624091538,91,55.9667,11.8667,84.09,10.07
233,merrill,86,US,1624091538,88,45.1805,-89.6835,62.55,5.75
234,eganville,75,CA,1624091539,95,45.5334,-77.0994,58.33,6.6
235,vostok,1,RU,1624091540,57,46.4856,135.8833,58.51,8.48
236,marsa matruh,100,MT,1624091541,34,35.8792,14.4953,85.01,6.91
237,bosaso,0,SO,1624091542,30,11.2842,49.1816,102.18,34.52
238,mehamn,0,NO,1624091543,87,71.0357,27.8492,43.72,6.17
239,torbay,100,CA,1624091544,82,47.6666,-52.7314,56.88,4.61
240,bambous virieux,90,MU,1624091545,59,-20.2567,57.4061,78.13,13.8
241,vranjska banja,6,BA,1624091545,47,44.8442,16.1284,83.57,2.46
242,weligama,36,LK,1624091546,67,5.9667,80.4167,85.84,15.21
243,analipsis,48,GR,1624091547,45,35.3167,25.5667,87.42,5.32
244,mhango,0,TZ,1624091548,53,-3.2833,32.85,73.44,6.85
245,kamenka,99,RU,1624091549,52,51.3223,42.7678,72.68,10.04
246,yar-sale,5,RU,1624091550,52,66.8333,70.8333,55.85,5.59
247,matagami,95,CA,1624091551,100,49.7502,-77.6328,53.71,0.0
248,narsaq,90,GL,1624091552,68,60.9167,-46.05,44.82,3.49
249,akonolinga,100,CM,1624091552,90,3.7667,12.25,75.04,2.35
250,veraval,81,IN,1624091553,66,20.9,70.3667,87.55,16.98
251,ballina,97,AU,1624091554,58,-28.8667,153.5667,59.04,13.8
252,port hawkesbury,6,CD,1624091555,54,-7.0349,29.7638,77.76,11.18
253,bilibino,16,RU,1624091536,61,68.0546,166.4372,47.61,9.82
254,bilma,100,NE,1624091556,10,18.6853,12.9164,101.01,6.31
255,codrington,5,AU,1624091557,76,-38.2667,141.9667,52.86,9.91
256,semenivka,100,UA,1624091558,65,52.1783,32.5818,76.82,11.5
257,san vicente,0,ML,1624091448,42,13.3034,-4.8956,89.92,14.43
258,pospelikha,80,RU,1624091559,57,51.95,81.7667,74.35,18.57
259,aguimes,98,ES,1624091560,60,27.9054,-15.4461,66.67,18.41
260,kavieng,40,PG,1624091560,74,-2.5744,150.7967,80.55,4.45
261,ketchikan,65,US,1624091561,82,55.3422,-131.6461,53.58,3.44
262,cockburn town,90,AU,1624091562,58,-32.0833,141.0,54.52,12.55
263,sur,32,OM,1624091562,59,22.5667,59.5289,90.14,13.02
264,komsomolskiy,95,UZ,1624091563,18,40.4272,71.7189,90.82,9.22
265,zapolyarnyy,0,RU,1624091564,62,69.4154,30.8136,51.08,18.07
266,zhigansk,93,RU,1624091564,44,66.7697,123.3711,70.65,5.68
267,sumbe,100,AO,1624091565,66,-11.2061,13.8437,78.55,3.38
268,muravlenko,8,RU,1624091566,44,63.7898,74.523,54.86,14.03
269,prince rupert,100,CA,1624091567,90,52.9669,-108.3847,46.56,3.18
270,lebu,23,CL,1624091567,84,-37.6167,-73.65,46.53,3.53
271,bathsheba,0,BB,1624091568,73,13.2167,-59.5167,79.41,13.8
272,iquique,40,CL,1624091569,80,-20.2208,-70.1431,59.04,7.52
273,qasigiannguit,3,GL,1624091570,75,68.8193,-51.1922,41.25,4.5
274,hami,20,CN,1624091572,7,42.8,93.45,93.2,9.31
275,klaksvik,100,FO,1624091572,91,62.2266,-6.589,47.32,16.46
276,arbazh,100,RU,1624091573,52,57.6804,48.3065,79.7,15.75
277,luganville,9,VU,1624091574,80,-15.5333,167.1667,77.85,3.33
278,ergani,55,TR,1624091574,12,38.2653,39.7621,92.12,4.32
279,ibra,0,OM,1624091575,6,22.6906,58.5334,111.76,3.62
280,tuktoyaktuk,43,CA,1624091576,59,69.4541,-133.0374,46.09,12.44
281,alice springs,92,US,1624091577,94,27.7523,-98.0697,77.4,0.0
282,nisia floresta,1,GR,1624091579,39,39.3942,21.6373,83.7,3.04
283,ende,44,ID,1624091580,80,-8.8432,121.6623,80.92,2.68
284,saskylakh,95,RU,1624091582,35,71.9167,114.0833,80.83,4.85
285,jahanabad,51,IN,1624091584,95,25.2167,84.9833,77.56,9.8
286,ucluelet,100,CA,1624091409,88,48.9329,-125.5528,57.09,9.55
287,bengkulu,69,ID,1624091585,69,-3.8004,102.2655,83.37,5.14
288,mlonggo,100,ID,1624091586,78,-6.5333,110.7,82.29,7.02
289,chaumont,100,FR,1624091586,78,48.1167,5.1333,75.36,6.55
290,kuantan,70,MY,1624091587,70,3.8077,103.326,87.91,5.75
291,esfarayen,40,IR,1624091588,10,37.0765,57.5101,87.46,16.55
292,vladimiro-aleksandrovskoye,0,RU,1624091588,76,42.8944,133.0778,62.71,5.99
293,tam ky,79,NE,1624091589,32,13.1339,12.1367,94.32,9.84
294,miracema do tocantins,91,BR,1624091590,87,-21.4122,-42.1967,63.01,1.1
295,perbaungan,98,ID,1624091591,71,3.5679,98.956,87.91,4.5
296,thonon-les-bains,77,FR,1624091591,63,46.25,6.5,74.28,3.74
297,hamilton,100,US,1624091592,96,39.1834,-84.5333,69.04,0.0
298,mount isa,75,GB,1624091593,86,53.6597,-1.8537,60.46,1.99
299,camacupa,84,AO,1624091593,27,-12.0167,17.4833,68.67,6.2
300,katherine,3,AU,1624091594,25,-14.4667,132.2667,79.12,8.05
301,itarema,100,BR,1624091595,91,-2.9248,-39.9167,73.69,10.0
302,trujillo,75,PE,1624091596,91,-8.116,-79.03,65.28,4.05
303,imbituba,74,BR,1624091597,96,-28.24,-48.6703,58.89,2.39
304,san jeronimo,100,ML,1624091356,47,13.3034,-4.8956,87.03,14.03
305,rio claro,74,GR,1624091598,61,38.3,21.7833,86.88,4.94
306,lichinga,42,MZ,1624091355,67,-13.3128,35.2406,62.69,16.11
307,san carlos de bariloche,40,ML,1624091599,42,13.3034,-4.8956,89.92,14.43
308,korla,80,CN,1624091600,16,41.7597,86.1469,88.66,17.78
309,villamontes,97,BO,1624091601,75,-21.25,-63.5,48.51,2.55
310,eyl,100,SO,1624091601,42,7.9803,49.8164,91.72,30.0
311,jalpan,100,MX,1624091464,89,21.2333,-99.4833,69.21,1.81
312,san cristobal,100,ML,1624091599,42,13.3034,-4.8956,89.92,14.43
313,erzin,80,TR,1624091603,57,36.9559,36.2,84.72,8.84
314,tuatapere,25,NZ,1624091604,90,-46.1333,167.6833,40.82,3.71
315,fort nelson,0,NL,1624091604,81,52.6517,6.3861,73.63,16.2
316,oranjemund,97,NA,1624091605,26,-28.55,16.4333,76.62,16.53
317,del rio,0,IR,1624091606,17,38.7941,45.0665,85.1,3.36
318,mecca,0,SA,1624091562,11,21.4267,39.8261,109.11,14.74
319,wajima,10,JP,1624091608,100,37.4,136.9,68.68,6.91
320,medea,75,DZ,1624091608,23,36.2642,2.7539,66.65,13.53
321,yarmouth,30,US,1624091609,76,41.7057,-70.2286,67.44,11.99
322,edea,75,CM,1624091610,80,3.8,10.1333,80.38,0.89
323,sioux lookout,74,US,1624091610,49,42.7333,-96.2336,69.71,10.36
324,kununurra,1,AU,1624091611,23,-15.7667,128.7333,84.18,8.05
325,vanimo,22,PG,1624091612,84,-2.6741,141.3028,79.02,4.83
326,ostrovnoy,27,RU,1624091613,93,68.0531,39.5131,44.1,15.59
327,abhar,100,IR,1624091614,17,36.1468,49.218,86.67,19.44
328,lobito,0,AO,1624091614,61,-12.3481,13.5456,78.8,3.87
329,mahibadhoo,4,MV,1624091615,75,3.7833,72.9667,83.37,13.47
330,verkhnevilyuysk,61,RU,1624091616,37,63.4453,120.3167,80.76,2.51
331,deputatskiy,99,RU,1624091617,28,69.3,139.9,75.33,5.12
332,nakamura,100,JP,1624091617,68,32.9833,132.9333,79.63,6.62
333,valdivia,89,CL,1624091475,97,-39.8142,-73.2459,32.09,1.03
334,mayo,5,US,1624091618,60,38.8876,-76.5119,75.61,3.44
335,mindelo,1,CV,1624091620,73,16.8901,-24.9804,72.95,20.71
336,san isidro,20,ML,1624091599,42,13.3034,-4.8956,89.92,14.43
337,soure,80,BR,1624091603,86,-0.7167,-48.5233,77.34,10.71
338,jimenez,30,MX,1624091621,33,28.3333,-105.4,74.44,7.4
339,reconquista,2,AR,1624091622,76,-29.15,-59.65,49.44,7.63
340,ambon,100,ID,1624091623,78,-3.6954,128.1814,80.74,4.61
341,port lincoln,40,CD,1624091373,54,-7.0349,29.7638,77.68,12.8
342,lorengau,12,PG,1624091624,74,-2.0226,147.2712,81.18,3.85
343,benoy,18,TD,1624091625,46,8.9833,16.3199,82.45,8.77
344,riyadh,100,SA,1624091361,9,24.6877,46.7219,102.34,16.11
345,gat,0,IL,1624091626,37,31.61,34.7642,82.78,11.41
346,taoudenni,0,ML,1624091627,11,22.6783,-3.9836,100.44,13.69
347,sibu,39,MY,1624091628,74,2.3,111.8167,86.31,3.0
348,shingu,40,JP,1624091629,98,33.7333,135.9833,74.39,2.26
349,save,100,BJ,1624091629,62,8.0425,2.486,84.79,5.55
350,dasoguz,65,TM,1624091630,17,41.8363,59.9666,95.11,18.41
351,gizo,0,SB,1624091631,73,-8.103,156.8419,82.36,5.26
352,mbandaka,5,CD,1624091632,64,0.0487,18.2603,81.77,2.89
353,ahipara,88,NZ,1624091633,90,-35.1667,173.1667,60.58,11.01
354,batagay-alyta,100,RU,1624091634,27,67.8006,130.4114,78.12,9.35
355,peterhead,100,GB,1624091635,74,57.5058,-1.7981,59.11,8.32
356,naze,93,JP,1624091635,86,28.3667,129.4833,77.92,7.05
357,grindavik,96,IS,1624091636,81,63.8424,-22.4338,45.07,5.75
358,egvekinot,75,RU,1624091637,85,66.3167,-179.1667,38.59,2.86
359,novyy urengoy,77,RU,1624091637,57,45.0072,38.9819,88.11,3.0
360,georgetown,0,MY,1624091383,78,5.4112,100.3354,87.75,5.75
361,pimentel,40,PE,1624091639,84,-6.8367,-79.9342,66.0,1.99
362,grimshaw,68,CA,1624091639,93,56.1834,-117.6027,52.5,11.5
363,port hardy,75,CD,1624091363,54,-7.0349,29.7638,77.68,12.8
364,martapura,12,ID,1624091640,88,-3.4167,114.85,75.29,9.22
365,filadelfia,75,US,1624091561,89,39.9523,-75.1638,70.99,1.01
366,grand gaube,75,US,1624091642,39,38.8755,-109.5012,81.59,2.1
367,dongsheng,100,CN,1624091642,12,39.8161,109.9776,82.53,20.87
368,colares,28,PT,1624091643,79,38.7992,-9.4469,64.45,18.01
369,altamira,40,BR,1624091644,100,-3.2033,-52.2064,70.81,2.51
370,pasighat,99,IN,1624091645,71,28.0667,95.3333,87.33,2.21
371,shelburne,78,CA,1624091646,100,44.0787,-80.2041,61.75,8.21
372,birao,1,CF,1624091647,46,10.2849,22.7882,88.56,6.64
373,poum,88,NC,1624091647,77,-20.2333,164.0167,75.07,10.16
374,rincon,64,US,1624091649,93,32.296,-81.2354,77.86,0.0
375,zyryanka,20,RU,1624091649,39,65.75,150.85,68.09,11.48
376,mount gambier,0,GB,1624091650,86,53.6597,-1.8537,60.46,1.99
377,marsh harbour,84,GB,1624091651,86,53.6512,-1.8078,60.58,1.99
378,san quintin,84,ML,1624091448,42,13.3034,-4.8956,89.92,14.43
379,gamba,80,GA,1624091652,75,-2.65,10.0,77.77,11.05
380,dagumba-an,94,PH,1624091653,96,8.1531,124.5908,78.67,0.89
381,outjo,100,NA,1624091653,22,-20.1167,16.15,73.11,19.19
382,pangkalanbuun,0,ID,1624091654,97,-2.6833,111.6167,75.25,4.5
383,bethanien,100,NA,1624091655,23,-26.502,17.1583,70.45,13.67
384,chilmari,6,BD,1624091656,84,25.5559,89.6715,79.21,7.4
385,xinye,100,CN,1624091656,73,32.5186,112.3522,72.27,5.28
386,sault sainte marie,100,FR,1624091657,45,44.091,5.4089,72.79,8.72
387,baykit,85,RU,1624091658,40,61.67,96.37,77.77,8.28
388,mehran,70,IR,1624091658,9,33.1222,46.1646,112.48,18.92
389,samarkand,0,UZ,1624091659,10,39.6542,66.9597,94.42,6.91
390,solnechnyy,2,RU,1624091660,54,50.7214,136.6319,70.03,6.64
391,esperance,98,AU,1624091660,56,-33.8667,121.9,60.64,9.8
392,santa rosa de cabal,43,PH,1624091661,75,17.486,120.4348,84.06,8.55
393,rawson,70,AR,1624091662,82,-43.3002,-65.1023,39.02,20.45
394,ponta delgada,0,PT,1624091513,83,38.7333,-28.2667,63.28,13.27
395,koboko,22,UG,1624091663,73,3.4136,30.9599,72.59,4.59
396,norden,98,DE,1624091664,77,53.6,7.2,71.94,5.01
397,cabo rojo,100,BR,1624091665,95,-8.2833,-35.0333,69.73,9.31
398,stantsionno-oyashinskiy,74,RU,1624091666,60,55.4664,83.8245,73.62,11.3
399,ventnor city,94,GB,1624091666,90,50.5948,-1.2037,57.42,1.99
400,pangnirtung,87,CA,1624091667,74,66.1451,-65.7125,41.09,4.34
401,buenos aires,100,US,1624091668,59,33.2993,-101.4876,76.57,11.9
402,dunedin,0,NZ,1624091669,92,-45.8742,170.5036,47.8,8.01
403,dwarka,100,IN,1624091669,66,22.2394,68.9678,87.37,18.48
404,toyooka,80,JP,1624091670,94,35.5333,134.8333,73.51,3.44
405,tommot,75,RU,1624091671,60,58.9564,126.2925,78.76,2.68
406,goderich,97,CA,1624091671,94,43.7501,-81.7165,65.91,1.14
407,dakar,0,SN,1624091672,78,14.6937,-17.4441,77.13,6.91
408,govindgarh,20,IN,1624091673,42,27.5,76.9833,94.15,13.29
409,bontang,91,ID,1624091387,70,0.1333,117.5,83.12,7.94
410,kungurtug,71,RU,1624091674,20,50.5994,97.5228,78.76,3.47
411,yumen,14,CN,1624091675,22,40.2833,97.2,78.53,15.12
412,bandarbeyla,100,SO,1624091676,45,9.4942,50.8122,91.94,27.85
413,acapulco,68,MX,1624091598,95,16.8634,-99.8901,76.26,10.33
414,rio gallegos,100,GR,1624091678,61,38.3,21.7833,86.88,4.94
415,avera,42,US,1624091678,83,33.194,-82.5271,75.07,5.41
416,kulhudhuffushi,100,MV,1624091679,76,6.6221,73.07,82.78,13.82
417,chyhyryn,68,UA,1624091680,75,49.0838,32.6555,74.48,10.58
418,meadville,43,US,1624091680,94,41.6414,-80.1515,71.46,4.61
419,ulladulla,75,AU,1624091681,71,-35.35,150.4667,56.88,21.56
420,zhangye,95,CN,1624091682,44,38.9342,100.4517,65.89,10.54
421,caravelas,100,BR,1624091682,88,-17.7125,-39.2481,68.45,8.99
422,bartica,100,GY,1624091683,100,6.4,-58.6167,75.52,1.41
423,ciro marina,62,IT,1624091684,51,39.3824,17.0626,87.04,8.9
424,kenai,6,US,1624091685,77,60.5544,-151.2583,57.29,0.0
425,biak,20,ID,1624091685,79,-0.9131,122.8766,79.54,6.62
426,pinega,95,RU,1624091686,38,64.7001,43.3936,70.66,18.14
427,antalaha,7,MG,1624091687,84,-14.9003,50.2788,75.45,11.97
428,synya,24,RU,1624091687,79,65.3718,58.0387,52.7,12.06
429,shenjiamen,99,CN,1624091688,91,29.9576,122.298,71.76,9.35
430,litovko,100,RU,1624091689,77,49.2361,135.1742,67.82,5.53
431,duluth,100,US,1624091504,90,46.7833,-92.1066,57.6,6.91
432,srednekolymsk,1,RU,1624091690,37,67.45,153.6833,60.75,9.31
433,belyy yar,0,RU,1624091691,46,55.8402,32.9419,78.96,5.17
434,hambantota,0,LK,1624091691,46,6.1241,81.1185,97.14,12.66
435,iroquois falls,20,US,1624091692,87,40.7506,-87.8334,73.69,4.0
436,aldan,100,RU,1624091693,71,58.6031,125.3894,69.76,1.88
437,rocha,100,UY,1624091693,89,-34.4833,-54.3333,47.66,2.42
438,mocuba,95,MZ,1624091694,50,-16.8392,36.9856,77.36,8.72
439,shubarshi,26,KZ,1624091695,24,48.5872,57.1869,78.28,9.8
440,watertown,64,US,1624091695,72,42.3709,-71.1828,69.71,1.99
441,lensk,75,RU,1624091589,38,60.7253,114.9278,77.77,6.22
442,kwekwe,100,ZW,1624091697,35,-18.9281,29.8149,69.42,12.5
443,richards bay,5,US,1624091699,82,46.8361,-95.9123,56.48,6.91
444,eureka,1,US,1624091699,74,40.8021,-124.1637,56.68,1.01
445,leeton,4,AU,1624091700,71,-34.5667,146.4,51.85,5.75
446,kushima,0,JP,1624091701,86,31.4583,131.2333,85.51,3.31
447,tianpeng,100,CN,1624091702,70,30.9866,103.9393,82.87,3.42
448,usinsk,100,RU,1624091704,74,65.9939,57.5281,54.23,22.64
449,fujin,100,CN,1624091704,78,47.26,132.0322,65.3,13.15
450,minas,99,UY,1624091705,87,-34.3759,-55.2377,39.67,4.12
451,flinders,100,AU,1624091706,73,-34.5833,150.8552,57.18,10.0
452,vilhena,100,BR,1624091636,81,-12.7406,-60.1458,61.09,2.13
453,roald,45,NO,1624091707,82,62.5833,6.1333,56.91,14.97
454,olafsvik,75,IS,1624091708,93,64.8945,-23.7142,39.22,9.53
455,kondopoga,93,RU,1624091708,43,62.2057,34.2614,76.68,9.04
456,janakkala,13,FI,1624091709,40,60.9,24.6,79.66,6.29
457,upington,7,ZA,1624091710,29,-28.4478,21.2561,64.78,2.3
458,iskateley,0,RU,1624091710,95,67.6803,53.1512,50.9,20.96
459,vestmannaeyjar,100,IS,1624091711,74,63.4427,-20.2734,44.89,4.21
460,namwala,100,ZM,1624091712,39,-15.7504,26.4384,73.27,12.3
461,namibe,0,AO,1624091712,88,-15.1961,12.1522,61.43,16.11
462,simoes,20,BR,1624091713,80,-7.5989,-40.8178,66.0,15.08
463,najran,7,SA,1624091714,10,17.4924,44.1277,97.45,10.25
464,mangochi,5,MW,1624091715,48,-14.4782,35.2645,76.03,10.74
465,geraldton,30,AU,1624091716,37,-28.7667,114.6,68.41,8.05
466,camacha,56,PT,1624091716,55,33.0833,-16.3333,64.53,12.66
467,sangar,20,RU,1624091593,29,63.9242,127.4739,76.15,5.08
468,vanavara,27,RU,1624091718,46,60.34,102.2797,72.27,6.49
469,zhicheng,98,CN,1624091719,76,30.2956,111.5047,74.28,2.71
470,orsha,100,BY,1624091720,64,54.5153,30.4053,78.91,8.99
471,yerbogachen,0,RU,1624091721,78,61.2767,108.0108,61.86,4.27
472,angoche,94,MZ,1624091721,56,-16.2325,39.9086,79.3,11.65
473,zabaykalsk,19,RU,1624091722,83,49.6333,117.3167,56.55,7.74
474,maceio,100,BR,1624091463,88,-9.6658,-35.7353,72.84,4.61
475,nishihara,20,JP,1624091723,89,26.1842,127.7558,85.68,12.66
476,ust-tsilma,90,RU,1624091724,83,65.441,52.1498,60.26,12.75
477,inyonga,98,TZ,1624091725,36,-6.7167,32.0667,76.73,8.59
478,meulaboh,100,ID,1624091725,67,4.1363,96.1285,84.7,7.4
479,elko,76,US,1624091726,33,41.0002,-115.5012,70.81,2.13
480,zhumadian,100,CN,1624091727,74,32.9794,114.0294,72.09,3.65
481,gigmoto,100,PH,1624091727,70,13.7796,124.39,87.53,9.6
482,necochea,100,AR,1624091728,73,-38.5473,-58.7368,37.04,5.61
483,trat,100,TH,1624091729,69,12.5,102.5,89.78,8.97
484,maralal,85,KE,1624091729,46,1.0968,36.698,71.15,3.24
485,cap-haitien,100,HT,1624091730,76,19.7578,-72.2042,78.78,4.27
486,owando,99,CG,1624091731,48,-0.4819,15.8999,88.45,1.92
487,mahon,53,ES,1624091731,57,39.8885,4.2658,82.96,13.8
488,mareeba,20,AU,1624091732,77,-17.0,145.4333,65.44,3.33
489,turbat,5,PK,1624091733,22,26.0023,63.044,103.48,11.23
490,jalu,0,LY,1624091734,32,29.0331,21.5482,85.3,13.67
491,bac lieu,0,RS,1624091734,51,45.3919,19.2367,87.31,6.93
492,bubaque,1,GW,1624091735,84,11.2833,-15.8333,79.07,13.33
493,lata,100,PT,1624091736,87,40.1629,-8.3327,66.34,0.6
494,taungdwingyi,99,MM,1624091736,75,20.0167,95.55,81.97,11.79
495,altay,97,CN,1624091737,21,47.8667,88.1167,85.03,13.04
496,minab,92,IR,1624091738,40,27.1467,57.0801,96.3,14.56
497,chitral,0,PK,1624091738,8,35.8462,71.7858,84.0,1.48
498,carballo,0,ES,1624091739,90,43.213,-8.691,58.77,2.84
499,guaratinga,100,BR,1624091740,98,-16.5667,-39.5667,66.87,3.96
500,jumla,87,NP,1624091740,94,29.2747,82.1838,62.62,1.99
501,golden,97,US,1624091741,54,39.7555,-105.2211,72.36,1.99
502,kaduna,1,NG,1624091742,67,10.5222,7.4383,79.47,6.38
503,yining,100,CN,1624091743,95,29.0361,114.5636,73.83,2.77
504,port hedland,100,CD,1624091743,54,-7.0349,29.7638,77.76,11.18
505,barentu,16,ER,1624091744,32,15.1139,37.5928,89.26,11.63
506,chernyshevskiy,28,RU,1624091745,28,63.0128,112.4714,78.71,5.82
507,cabra,100,ES,1624091746,64,37.4725,-4.4421,65.39,6.35
508,mirabad,100,AF,1624091746,4,30.4362,61.8383,105.51,14.94
509,dingle,0,PH,1624091747,77,10.9995,122.6711,83.55,10.02
510,pelym,100,RU,1624091748,34,61.0108,61.9978,69.58,7.58
511,pacific grove,84,US,1624091749,88,38.482,-90.7415,80.58,8.25
512,olga,53,RU,1624091750,97,43.7444,135.2892,50.32,14.94
513,vila nova de milfontes,100,PT,1624091750,86,42.0304,-8.1588,55.74,4.25
514,havelock,40,US,1624091623,88,34.8791,-76.9013,77.95,1.01
515,havoysund,32,NO,1624091752,94,70.9963,24.6622,47.28,5.21
516,nizhniy tsasuchey,100,RU,1624091752,58,45.3926,39.2364,89.98,17.25
517,teya,41,RU,1624091753,33,60.3778,92.6267,83.71,0.18
518,tsiroanomandidy,14,MG,1624091754,30,-18.7667,46.0333,77.94,4.38
519,skeldon,62,GY,1624091754,96,5.8833,-57.1333,73.71,5.39
520,krasnyy kholm,44,RU,1624091755,62,54.5678,31.4333,73.96,7.94
521,mitchell,0,US,1624091756,59,43.7094,-98.0298,64.11,1.01
522,luba,1,GQ,1624091757,80,3.4568,8.5547,78.69,2.66
523,natchitoches,61,US,1624091758,100,31.7668,-93.1335,72.45,0.0
524,charlestown,1,AU,1624091759,91,-32.95,151.6667,58.21,8.01
525,bahia blanca,100,BR,1624091760,88,-12.0,-42.0,62.06,6.31
526,christchurch,100,NZ,1624091684,87,-43.5333,172.6333,45.0,1.01
527,ahuimanu,75,US,1624091761,69,21.4447,-157.8378,76.75,4.61
528,lieksa,75,FI,1624091762,62,63.3167,30.0167,58.96,6.58
529,chacabuco,94,AR,1624091763,67,-34.6417,-60.4739,35.8,2.68
530,noumea,85,NC,1624091683,99,-22.2763,166.4572,73.99,9.69
531,dire,67,ML,1624091764,64,12.2833,-10.9667,84.07,5.08
532,glasgow,12,GB,1624091557,79,55.8652,-4.2576,58.71,6.91
533,sawtell,75,AU,1624091766,58,-30.3833,153.1,63.19,17.27
534,hualmay,92,PE,1624091766,88,-11.0964,-77.6139,64.31,6.29
535,atherton,80,GB,1624091767,74,53.5237,-2.4935,62.19,4.0
536,svitavy,82,CZ,1624091768,55,49.7559,16.4683,82.72,3.78
537,labuan,0,MY,1624091769,74,5.2767,115.2417,87.96,5.99
538,rize,20,TR,1624091770,56,40.9044,40.8949,66.65,2.66
